City_ID,City,Lat,Lng,Max Temp,Humidity,Cloudiness,Wind Speed,Country,Date
0,laguna,38.421,-121.4238,10.72,93,100,4.12,US,01-12-2022 23:17:18
1,hilo,19.7297,-155.09,29.04,78,100,4.12,US,01-12-2022 23:17:18
2,sangar,63.9242,127.4739,-32.88,95,100,2.54,RU,01-12-2022 23:16:55
3,cukai,4.25,103.4167,25.0,91,96,2.28,MY,01-12-2022 23:17:18
4,port elizabeth,-33.918,25.5701,17.95,95,11,1.79,ZA,01-12-2022 23:13:21
5,hasaki,35.7333,140.8333,9.56,78,100,5.78,JP,01-12-2022 23:17:18
6,carnarvon,-24.8667,113.6333,21.13,74,0,6.1,AU,01-12-2022 23:17:18
7,busselton,-33.65,115.3333,15.08,79,3,2.37,AU,01-12-2022 23:17:19
8,okha,53.5739,142.9478,-19.32,89,80,7.9,RU,01-12-2022 23:17:19
9,saint-philippe,-21.3585,55.7679,22.77,80,18,1.71,RE,01-12-2022 23:17:19
10,kromy,52.6876,35.7667,-3.85,78,100,4.62,RU,01-12-2022 23:17:19
11,kapaa,22.0752,-159.319,28.99,58,0,7.72,US,01-12-2022 23:17:20
12,chokurdakh,70.6333,147.9167,-18.41,97,100,3.91,RU,01-12-2022 23:16:16
13,sur,22.5667,59.5289,22.84,48,81,2.6,OM,01-12-2022 23:17:20
14,kodiak,57.79,-152.4072,2.73,60,0,5.14,US,01-12-2022 23:17:20
15,mataura,-46.1927,168.8643,10.27,82,61,3.77,NZ,01-12-2022 23:17:20
16,ushuaia,-54.8,-68.3,12.81,47,75,4.63,AR,01-12-2022 23:15:37
17,yellowknife,62.456,-114.3525,-29.71,76,40,2.57,CA,01-12-2022 23:17:20
18,butaritari,3.0707,172.7902,27.16,78,26,7.47,KI,01-12-2022 23:17:20
19,airai,-8.9266,125.4092,18.72,63,27,0.59,TL,01-12-2022 23:17:21
20,san patricio,28.017,-97.5169,16.93,82,99,5.59,US,01-12-2022 23:17:21
21,ndele,8.4109,20.6473,27.47,41,92,1.0,CF,01-12-2022 23:17:21
22,barrow,71.2906,-156.7887,-5.99,93,100,5.66,US,01-12-2022 23:17:21
23,vaini,-21.2,-175.2,30.09,74,20,3.6,TO,01-12-2022 23:17:21
24,kruisfontein,-34.0033,24.7314,16.6,86,5,2.0,ZA,01-12-2022 23:17:21
25,tiksi,71.6872,128.8694,-23.24,96,100,4.89,RU,01-12-2022 23:17:21
26,nyurba,63.2842,118.3319,-22.53,95,100,3.4,RU,01-12-2022 23:17:22
27,collie,-33.3667,116.15,15.33,66,0,1.66,AU,01-12-2022 23:17:22
28,hami,42.8,93.45,-8.88,21,100,0.72,CN,01-12-2022 23:17:23
29,arraial do cabo,-22.9661,-42.0278,23.98,88,75,8.75,BR,01-12-2022 23:17:23
30,khatanga,71.9667,102.5,-12.14,94,99,5.89,RU,01-12-2022 23:17:23
31,cape town,-33.9258,18.4232,18.48,82,75,3.09,ZA,01-12-2022 23:15:39
32,zhigansk,66.7697,123.3711,-27.15,99,100,2.53,RU,01-12-2022 23:13:50
33,rikitea,-23.1203,-134.9692,23.72,76,100,4.43,PF,01-12-2022 23:17:23
34,niono,14.2526,-5.993,25.56,17,40,2.21,ML,01-12-2022 23:17:23
35,massakory,12.996,15.7293,24.77,19,84,3.67,TD,01-12-2022 23:17:23
36,klaksvik,62.2266,-6.589,10.51,96,100,13.15,FO,01-12-2022 23:15:54
37,norman wells,65.282,-126.8329,-12.98,72,100,6.17,CA,01-12-2022 23:17:23
38,guaymas,27.9333,-110.9,27.47,47,0,0.0,MX,01-12-2022 23:17:23
39,new norfolk,-42.7826,147.0587,18.17,51,68,0.89,AU,01-12-2022 23:17:24
40,atuona,-9.8,-139.0333,25.56,70,9,9.05,PF,01-12-2022 23:17:24
41,salamiyah,35.0113,37.0532,11.71,80,1,1.04,SY,01-12-2022 23:17:24
42,tournon-sur-rhone,45.0667,4.8333,6.26,80,99,2.51,FR,01-12-2022 23:12:57
43,narsaq,60.9167,-46.05,-5.88,78,34,1.9,GL,01-12-2022 23:17:25
44,mar del plata,-38.0023,-57.5575,17.83,88,100,6.69,AR,01-12-2022 23:17:25
45,egvekinot,66.3167,-179.1667,-1.43,99,100,5.02,RU,01-12-2022 23:17:25
46,cherskiy,68.75,161.3,-28.68,98,92,2.17,RU,01-12-2022 23:17:25
47,norfolk,42.1668,-71.2495,4.3,56,20,4.63,US,01-12-2022 23:17:25
48,ostrovnoy,68.0531,39.5131,-3.26,92,100,5.29,RU,01-12-2022 23:17:25
49,puerto ayora,-0.7393,-90.3518,20.86,93,82,3.58,EC,01-12-2022 23:17:25
50,bambous virieux,-20.3428,57.7575,23.14,78,75,2.06,MU,01-12-2022 23:17:26
51,cidreira,-30.1811,-50.2056,22.21,94,96,7.13,BR,01-12-2022 23:17:26
52,vila,42.0304,-8.1588,1.49,82,0,2.04,PT,01-12-2022 23:17:26
53,luderitz,-26.6481,15.1594,17.24,85,0,8.56,NA,01-12-2022 23:17:26
54,tasiilaq,65.6145,-37.6368,0.09,73,84,3.22,GL,01-12-2022 23:17:26
55,pop,40.8736,71.1089,2.27,70,100,1.91,UZ,01-12-2022 23:17:26
56,maridi,4.9158,29.4742,21.26,82,72,1.84,SS,01-12-2022 23:17:27
57,tura,25.5198,90.2201,15.53,78,0,1.64,IN,01-12-2022 23:17:27
58,hermanus,-34.4187,19.2345,16.0,87,40,4.15,ZA,01-12-2022 23:14:11
59,aklavik,68.2191,-135.0107,-16.0,85,75,3.09,CA,01-12-2022 23:17:27
60,mpika,-11.8343,31.4529,15.1,96,100,0.72,ZM,01-12-2022 23:17:27
61,buala,-8.145,159.5921,26.95,83,100,2.09,SB,01-12-2022 23:17:27
62,kilinochchi,9.3961,80.3982,24.7,87,18,2.68,LK,01-12-2022 23:17:27
63,bluff,-46.6,168.3333,10.45,60,59,7.66,NZ,01-12-2022 23:17:28
64,lusambo,-4.9667,23.45,19.46,99,100,0.76,CD,01-12-2022 23:17:28
65,mianyang,31.4593,104.7542,2.92,90,34,0.69,CN,01-12-2022 23:17:28
66,mahebourg,-20.4081,57.7,23.16,78,75,2.06,MU,01-12-2022 23:17:28
67,pringsewu,-5.3582,104.9744,22.34,92,99,1.52,ID,01-12-2022 23:17:28
68,oriximina,-1.7656,-55.8661,25.46,87,100,1.01,BR,01-12-2022 23:17:28
69,zigong,29.3416,104.7769,6.01,82,100,0.86,CN,01-12-2022 23:17:29
70,port alfred,-33.5906,26.891,18.99,89,54,1.79,ZA,01-12-2022 23:17:29
71,murgab,37.4966,61.9714,0.93,60,100,3.09,TM,01-12-2022 23:17:29
72,acajutla,13.5928,-89.8275,28.02,70,97,1.44,SV,01-12-2022 23:17:29
73,sao filipe,14.8961,-24.4956,23.36,65,100,5.84,CV,01-12-2022 23:17:29
74,miramar,25.9873,-80.2323,26.01,76,20,6.17,US,01-12-2022 23:17:30
75,katsuura,35.1333,140.3,11.08,69,100,5.19,JP,01-12-2022 23:17:30
76,manacapuru,-3.2997,-60.6206,27.17,76,80,1.59,BR,01-12-2022 23:17:30
77,albany,42.6001,-73.9662,2.54,58,91,4.53,US,01-12-2022 23:17:31
78,east london,-33.0153,27.9116,21.78,93,83,2.64,ZA,01-12-2022 23:16:08
79,shimoda,34.6667,138.95,12.2,73,89,4.81,JP,01-12-2022 23:17:31
80,georgetown,5.4112,100.3354,26.24,82,20,1.54,MY,01-12-2022 23:17:31
81,steamboat springs,40.485,-106.8317,5.77,58,0,0.89,US,01-12-2022 23:17:31
82,fonte boa,-2.4959,-66.2662,24.73,93,82,1.17,BR,01-12-2022 23:17:32
83,vostok,46.4856,135.8833,-24.94,97,82,2.5,RU,01-12-2022 23:17:32
84,salinopolis,-0.6136,-47.3561,27.11,79,55,6.1,BR,01-12-2022 23:17:32
85,bakel,14.905,-12.4568,28.31,16,84,3.28,SN,01-12-2022 23:17:32
86,lima,-12.0432,-77.0282,20.14,73,0,5.66,PE,01-12-2022 23:14:14
87,tazovskiy,67.4667,78.7,-19.63,98,99,4.52,RU,01-12-2022 23:17:32
88,jamestown,42.097,-79.2353,-0.23,89,100,3.09,US,01-12-2022 23:17:33
89,huarmey,-10.0681,-78.1522,21.0,80,11,4.02,PE,01-12-2022 23:17:33
90,sola,-13.8833,167.55,29.37,79,32,1.54,VU,01-12-2022 23:17:33
91,punta arenas,-53.15,-70.9167,10.35,69,100,8.71,CL,01-12-2022 23:17:33
92,balkhash,46.844,74.9804,-8.27,95,99,1.15,KZ,01-12-2022 23:17:33
93,svetlogorsk,52.6333,29.7333,-9.27,93,89,2.73,BY,01-12-2022 23:17:33
94,stanislav,46.5691,32.1478,3.43,74,99,7.43,UA,01-12-2022 23:17:33
95,isangel,-19.55,169.2667,30.06,74,82,4.63,VU,01-12-2022 23:17:34
96,cayenne,4.9333,-52.3333,27.02,78,75,1.54,GF,01-12-2022 23:17:34
97,ukiah,39.1502,-123.2078,9.65,71,40,4.12,US,01-12-2022 23:17:34
98,douentza,14.9951,-2.9517,26.01,15,98,1.29,ML,01-12-2022 23:17:34
99,hamilton,39.1834,-84.5333,2.77,60,0,2.57,US,01-12-2022 23:17:34
100,saskylakh,71.9167,114.0833,-31.87,100,98,1.59,RU,01-12-2022 23:17:34
101,hampton,37.0299,-76.3452,8.03,53,0,3.6,US,01-12-2022 23:17:34
102,moindou,-21.6924,165.677,31.24,60,91,4.3,NC,01-12-2022 23:17:35
103,harper,4.375,-7.7169,25.53,85,100,2.34,LR,01-12-2022 23:17:35
104,sakaiminato,35.55,133.2333,6.99,70,75,4.63,JP,01-12-2022 23:17:35
105,huilong,31.8111,121.655,3.94,70,100,4.04,CN,01-12-2022 23:17:35
106,yulara,-25.2406,130.9889,27.7,16,0,4.01,AU,01-12-2022 23:17:35
107,honiara,-9.4333,159.95,27.97,80,95,1.74,SB,01-12-2022 23:17:35
108,raudeberg,61.9875,5.1352,4.37,66,4,4.26,NO,01-12-2022 23:17:36
109,talnakh,69.4865,88.3972,-16.91,99,100,1.69,RU,01-12-2022 23:17:36
110,hobart,-42.8794,147.3294,18.36,59,20,3.09,AU,01-12-2022 23:17:36
111,bac lieu,9.285,105.7244,25.9,82,100,7.28,VN,01-12-2022 23:17:37
112,palmas,-10.2128,-48.3603,25.93,89,20,1.54,BR,01-12-2022 23:12:46
113,ribeira grande,38.5167,-28.7,13.76,59,74,2.24,PT,01-12-2022 23:17:37
114,santa rosa,14.3122,121.1114,26.99,80,100,6.16,PH,01-12-2022 23:17:37
115,brae,60.3964,-1.353,8.9,91,100,11.62,GB,01-12-2022 23:17:37
116,poco das trincheiras,-9.3125,-37.2856,24.83,78,100,2.46,BR,01-12-2022 23:17:37
117,banda aceh,5.5577,95.3222,25.11,77,100,2.58,ID,01-12-2022 23:17:37
118,barstow,34.8986,-117.0228,14.55,52,67,9.21,US,01-12-2022 23:17:37
119,castro,-24.7911,-50.0119,18.02,87,6,0.84,BR,01-12-2022 23:17:37
120,torbay,47.6666,-52.7314,7.44,92,100,14.4,CA,01-12-2022 23:17:38
121,plettenberg bay,-34.0527,23.3716,17.05,90,52,3.45,ZA,01-12-2022 23:17:38
122,diamantino,-14.4086,-56.4461,21.48,88,82,1.83,BR,01-12-2022 23:17:39
123,evanston,42.0411,-87.6901,1.32,52,75,6.17,US,01-12-2022 23:17:39
124,coquimbo,-29.9533,-71.3436,17.85,72,20,5.14,CL,01-12-2022 23:17:39
125,severo-kurilsk,50.6789,156.125,-2.47,73,83,4.56,RU,01-12-2022 23:17:40
126,batagay,67.6333,134.6333,-29.91,98,100,1.35,RU,01-12-2022 23:17:40
127,kavaratti,10.5669,72.642,26.99,76,5,0.81,IN,01-12-2022 23:17:40
128,lebu,-37.6167,-73.65,13.03,75,0,8.37,CL,01-12-2022 23:17:40
129,pacific grove,36.6177,-121.9166,10.79,90,100,4.92,US,01-12-2022 23:17:41
130,tuktoyaktuk,69.4541,-133.0374,-18.0,78,100,5.66,CA,01-12-2022 23:17:42
131,beira,-19.8436,34.8389,23.05,94,20,1.54,MZ,01-12-2022 23:17:42
132,camacha,33.0833,-16.3333,16.68,77,40,6.69,PT,01-12-2022 23:17:42
133,beringovskiy,63.05,179.3167,1.68,99,100,5.82,RU,01-12-2022 23:17:42
134,ayorou,14.7308,0.9174,24.75,16,97,3.62,NE,01-12-2022 23:17:42
135,kaitangata,-46.2817,169.8464,10.45,73,42,5.56,NZ,01-12-2022 23:17:42
136,hutchinson,38.0608,-97.9298,8.35,48,0,9.77,US,01-12-2022 23:17:43
137,aleksandrovsk-sakhalinskiy,50.8975,142.1561,-13.03,86,100,5.09,RU,01-12-2022 23:17:43
138,lasa,46.6166,10.7002,3.49,79,95,0.38,IT,01-12-2022 23:17:44
139,paciran,-6.8767,112.3761,24.77,84,99,4.54,ID,01-12-2022 23:17:44
140,maragogi,-9.0122,-35.2225,25.64,81,51,5.11,BR,01-12-2022 23:17:44
141,bulgan,48.8125,103.5347,-20.35,95,100,1.45,MN,01-12-2022 23:17:44
142,calama,-22.4667,-68.9333,16.27,11,0,10.8,CL,01-12-2022 23:15:49
143,schubelbach,47.1733,8.9281,4.03,63,95,0.54,CH,01-12-2022 23:17:45
144,souillac,-20.5167,57.5167,23.21,78,75,2.06,MU,01-12-2022 23:17:45
145,broken hill,-31.95,141.4333,22.62,38,0,5.69,AU,01-12-2022 23:17:45
146,bocas del toro,9.3333,-82.25,26.5,74,65,2.38,PA,01-12-2022 23:17:45
147,karakol,42.4907,78.3936,-3.8,66,100,2.14,KG,01-12-2022 23:17:46
148,qaanaaq,77.484,-69.3632,-31.95,75,3,3.34,GL,01-12-2022 23:17:46
149,longyearbyen,78.2186,15.6401,5.91,65,75,4.12,SJ,01-12-2022 23:17:47
150,santa cruz de tenerife,28.4682,-16.2546,19.79,94,75,8.75,ES,01-12-2022 23:17:47
151,gazanjyk,39.2446,55.5154,4.35,25,100,6.21,TM,01-12-2022 23:17:47
152,grand terrace,34.0339,-117.3137,15.12,63,0,5.14,US,01-12-2022 23:17:47
153,victoria,22.2855,114.1577,15.14,75,100,5.81,HK,01-12-2022 23:13:03
154,lagoa,39.05,-27.9833,13.76,48,66,12.01,PT,01-12-2022 23:17:47
155,bredasdorp,-34.5322,20.0403,16.97,88,51,3.18,ZA,01-12-2022 23:17:47
156,akonolinga,3.7667,12.25,22.99,71,100,1.17,CM,01-12-2022 23:17:47
157,yataity del norte,-24.8333,-56.35,21.7,92,87,2.57,PY,01-12-2022 23:17:48
158,yabelo,4.8833,38.0833,14.87,54,59,6.64,ET,01-12-2022 23:17:48
159,alta floresta,-9.8756,-56.0861,20.66,98,94,2.65,BR,01-12-2022 23:17:48
160,ust-nera,64.5667,143.2,-30.8,99,100,1.66,RU,01-12-2022 23:17:48
161,terenos,-20.4422,-54.8603,23.84,73,75,4.12,BR,01-12-2022 23:17:49
162,faanui,-16.4833,-151.75,27.02,78,83,8.72,PF,01-12-2022 23:17:49
163,loandjili,-4.7561,11.8578,25.52,89,100,2.26,CG,01-12-2022 23:17:49
164,the valley,18.217,-63.0578,26.92,78,20,2.06,AI,01-12-2022 23:17:49
165,tres coroas,-29.5169,-50.7778,26.91,91,95,1.37,BR,01-12-2022 23:17:49
166,panambi,-28.2925,-53.5017,27.26,42,43,2.23,BR,01-12-2022 23:17:49
167,mandera,3.9366,41.867,27.08,63,67,7.13,KE,01-12-2022 23:17:49
168,le pradet,43.1066,6.0172,10.35,81,0,2.57,FR,01-12-2022 23:17:50
169,kuzino,57.0224,59.4412,-18.33,95,53,2.14,RU,01-12-2022 23:17:50
170,nikolskoye,59.7035,30.7861,-9.0,87,99,1.52,RU,01-12-2022 23:17:50
171,sawtell,-30.3833,153.1,19.01,82,75,8.23,AU,01-12-2022 23:17:50
172,dikson,73.5069,80.5464,-3.03,96,100,6.85,RU,01-12-2022 23:17:50
173,nuuk,64.1835,-51.7216,-6.66,49,40,9.26,GL,01-12-2022 23:17:50
174,broome,42.2506,-75.833,0.81,66,100,4.63,US,01-12-2022 23:17:51
175,itoman,26.1247,127.6694,20.01,73,75,8.75,JP,01-12-2022 23:17:51
176,kiama,-34.6833,150.8667,20.77,82,94,0.89,AU,01-12-2022 23:17:51
177,shihezi,44.3,86.0333,-10.86,94,99,0.48,CN,01-12-2022 23:17:52
178,hofn,64.2539,-15.2082,7.45,92,100,7.96,IS,01-12-2022 23:17:52
179,chatrapur,19.35,84.9833,21.72,83,0,1.91,IN,01-12-2022 23:17:52
180,muros,42.7762,-9.0603,7.13,87,4,2.41,ES,01-12-2022 23:17:52
181,san cristobal,7.7669,-72.225,20.1,94,25,1.88,VE,01-12-2022 23:15:51
182,baylo,7.8539,126.0581,24.07,97,100,1.07,PH,01-12-2022 23:17:53
183,nome,64.5011,-165.4064,-4.96,86,100,6.17,US,01-12-2022 23:17:53
184,bethel,41.3712,-73.414,3.93,55,0,3.09,US,01-12-2022 23:17:53
185,codrington,-38.2667,141.9667,14.91,68,11,2.74,AU,01-12-2022 23:17:53
186,te anau,-45.4167,167.7167,11.79,47,41,1.73,NZ,01-12-2022 23:14:36
187,xuddur,4.1213,43.8894,22.64,81,46,5.37,SO,01-12-2022 23:17:54
188,buraydah,26.326,43.975,17.25,64,3,4.14,SA,01-12-2022 23:17:55
189,dzhebariki-khaya,62.2167,135.8,-34.33,99,100,0.25,RU,01-12-2022 23:17:55
190,nanga eboko,4.6833,12.3667,23.84,64,99,0.85,CM,01-12-2022 23:17:55
191,puerto narino,-3.7703,-70.3831,24.73,91,75,1.49,CO,01-12-2022 23:17:55
192,isla mujeres,21.2311,-86.731,27.03,79,10,6.43,MX,01-12-2022 23:17:56
193,watertown,42.3709,-71.1828,4.6,54,40,8.23,US,01-12-2022 23:17:56
194,arlit,18.7369,7.3853,22.45,18,100,2.31,NE,01-12-2022 23:17:56
195,biltine,14.5333,20.9167,25.25,23,56,3.28,TD,01-12-2022 23:17:56
196,coihaique,-45.5752,-72.0662,11.97,62,75,1.54,CL,01-12-2022 23:16:31
197,mumford,5.2618,-0.759,26.01,86,98,3.31,GH,01-12-2022 23:17:57
198,filingue,14.3521,3.3168,24.77,16,4,3.18,NE,01-12-2022 23:17:57
199,westport,41.1415,-73.3579,5.42,50,0,3.09,US,01-12-2022 23:17:57
200,noyabrsk,63.1994,75.4507,-23.61,88,48,3.8,RU,01-12-2022 23:17:57
201,kalangala,-0.3089,32.225,19.64,71,83,2.42,UG,01-12-2022 23:17:57
202,mount isa,-20.7333,139.5,29.87,26,0,4.12,AU,01-12-2022 23:17:57
203,omboue,-1.5746,9.2618,25.62,88,100,1.79,GA,01-12-2022 23:17:58
204,ahipara,-35.1667,173.1667,17.48,70,91,4.72,NZ,01-12-2022 23:17:58
205,tautira,-17.7333,-149.15,26.32,81,89,7.6,PF,01-12-2022 23:17:58
206,flin flon,54.7682,-101.865,-22.09,71,100,3.09,CA,01-12-2022 23:17:58
207,botou,38.0667,116.5667,-5.95,27,56,3.28,CN,01-12-2022 23:17:58
208,mwandiga,-4.83,29.6581,20.49,87,100,0.65,TZ,01-12-2022 23:17:58
209,nanortalik,60.1432,-45.2371,-5.91,73,4,7.17,GL,01-12-2022 23:17:59
210,kabanjahe,3.1001,98.4908,16.6,92,100,0.83,ID,01-12-2022 23:17:59
211,lompoc,34.6391,-120.4579,14.88,73,100,6.69,US,01-12-2022 23:17:59
212,palanga,55.9175,21.0686,-1.99,93,100,3.09,LT,01-12-2022 23:17:06
213,pangnirtung,66.1451,-65.7125,-10.0,31,100,8.75,CA,01-12-2022 23:17:59
214,goderich,43.7501,-81.7165,0.51,69,82,4.12,CA,01-12-2022 23:17:59
215,thompson,55.7435,-97.8558,-28.91,76,40,2.06,CA,01-12-2022 23:17:59
216,port lincoln,-34.7333,135.8667,19.41,69,0,4.87,AU,01-12-2022 23:18:00
217,bucerias,20.75,-105.3333,27.21,69,40,4.63,MX,01-12-2022 23:18:00
218,ramnagar,29.4,79.1167,14.42,76,91,1.4,IN,01-12-2022 23:18:01
219,matagami,49.7502,-77.6328,-7.94,79,20,5.14,CA,01-12-2022 23:18:01
220,montepuez,-13.1256,38.9997,20.79,88,100,1.28,MZ,01-12-2022 23:18:01
221,chuy,-33.6971,-53.4616,21.12,94,44,2.98,UY,01-12-2022 23:18:01
222,bosaso,11.2842,49.1816,24.01,80,4,1.29,SO,01-12-2022 23:18:01
223,lorengau,-2.0226,147.2712,28.83,70,100,1.68,PG,01-12-2022 23:18:01
224,tolaga bay,-38.3667,178.3,16.67,62,26,2.67,NZ,01-12-2022 23:18:01
225,plouzane,48.3833,-4.6167,5.03,93,34,1.54,FR,01-12-2022 23:18:02
226,that phanom,16.9364,104.7104,19.29,83,92,4.09,TH,01-12-2022 23:18:02
227,sumbuya,7.6467,-11.9611,24.06,93,83,1.24,SL,01-12-2022 23:18:02
228,acapulco,16.8634,-99.8901,28.9,70,75,3.09,MX,01-12-2022 23:17:04
229,nishihara,26.1842,127.7558,19.6,73,75,8.75,JP,01-12-2022 23:18:02
230,upernavik,72.7868,-56.1549,-18.82,99,86,8.59,GL,01-12-2022 23:18:02
231,raga,8.4596,25.678,25.25,32,100,1.37,SS,01-12-2022 23:18:02
232,ust-ilimsk,58.0006,102.6619,-25.02,96,100,2.54,RU,01-12-2022 23:14:52
233,lumphat,13.4878,106.9816,21.8,88,100,1.61,KH,01-12-2022 23:18:03
234,lodja,-3.4833,23.4333,19.87,99,100,0.88,CD,01-12-2022 23:18:03
235,methoni,36.8197,21.7049,14.01,79,31,4.44,GR,01-12-2022 23:13:31
236,abha,18.2164,42.5053,11.9,35,0,0.0,SA,01-12-2022 23:18:03
237,seguela,7.9611,-6.6731,24.56,77,97,2.76,CI,01-12-2022 23:18:04
238,male,4.1748,73.5089,26.97,89,75,3.6,MV,01-12-2022 23:15:50
239,revelstoke,50.9832,-118.2023,-8.99,62,0,5.66,CA,01-12-2022 23:18:04
240,avera,33.194,-82.5271,8.08,45,94,2.55,US,01-12-2022 23:18:05
241,khani,41.9563,42.9566,5.76,74,93,2.64,GE,01-12-2022 23:18:05
242,frontera,26.9333,-101.45,18.86,45,40,3.6,MX,01-12-2022 23:18:05
243,lujan,-34.5703,-59.105,21.84,69,49,5.86,AR,01-12-2022 23:13:20
244,suhbaatar,50.2314,106.2078,-21.49,93,100,0.86,MN,01-12-2022 23:18:05
245,catamarca,-28.4696,-65.7852,23.21,49,100,0.21,AR,01-12-2022 23:15:36
246,alexandria,31.2156,29.9553,18.82,73,0,2.86,EG,01-12-2022 23:18:06
247,kahului,20.8947,-156.47,27.2,76,40,6.17,US,01-12-2022 23:18:06
248,mogadishu,2.0371,45.3438,26.52,76,99,5.44,SO,01-12-2022 23:18:06
249,mato verde,-15.3972,-42.8664,22.53,87,71,1.18,BR,01-12-2022 23:18:06
250,nouadhibou,20.931,-17.0347,17.99,72,80,6.69,MR,01-12-2022 23:18:06
251,funadhoo,6.15,73.2667,26.28,78,86,1.61,MV,01-12-2022 23:18:06
252,wanning,18.8003,110.3967,19.48,91,100,6.73,CN,01-12-2022 23:18:07
253,cape canaveral,28.4058,-80.6048,23.34,68,0,8.75,US,01-12-2022 23:18:07
254,namatanai,-3.6667,152.4333,29.07,69,99,2.0,PG,01-12-2022 23:18:07
255,hithadhoo,-0.6,73.0833,27.09,68,38,3.12,MV,01-12-2022 23:18:07
256,salacgriva,57.7536,24.3581,-4.97,86,100,3.69,LV,01-12-2022 23:18:07
257,magdagachi,53.45,125.8,-35.71,99,30,1.33,RU,01-12-2022 23:18:07
258,jibuti,11.5,42.5,20.62,75,0,2.98,DJ,01-12-2022 23:18:07
259,leshukonskoye,64.8989,45.7622,-5.57,97,100,1.76,RU,01-12-2022 23:18:07
260,sao felix do xingu,-6.6447,-51.995,23.26,97,75,0.73,BR,01-12-2022 23:18:07
261,pochutla,15.7432,-96.4661,29.9,65,47,2.05,MX,01-12-2022 23:18:08
262,saint-pierre,-21.3393,55.4781,25.87,64,0,2.57,RE,01-12-2022 23:18:08
263,gushikawa,26.3544,127.8686,19.57,77,100,6.17,JP,01-12-2022 23:18:08
264,sao joao da barra,-21.6403,-41.0511,24.05,91,100,8.27,BR,01-12-2022 23:18:08
265,van,38.4924,43.3831,2.64,81,40,1.03,TR,01-12-2022 23:18:08
266,vila velha,-20.3297,-40.2925,22.97,98,100,5.66,BR,01-12-2022 23:18:09
267,kununurra,-15.7667,128.7333,27.99,57,56,1.54,AU,01-12-2022 23:18:09
268,los llanos de aridane,28.6585,-17.9182,17.86,87,0,1.54,ES,01-12-2022 23:18:09
269,manokwari,-0.8667,134.0833,26.19,78,100,0.98,ID,01-12-2022 23:18:09
270,saldanha,-33.0117,17.9442,18.03,85,32,5.5,ZA,01-12-2022 23:18:09
271,kanniyakumari,8.0833,77.5667,25.68,82,80,5.09,IN,01-12-2022 23:18:09
272,ilulissat,69.2167,-51.1,-21.86,83,16,3.89,GL,01-12-2022 23:18:10
273,batemans bay,-35.7167,150.1833,17.83,85,100,2.46,AU,01-12-2022 23:18:10
274,vikhorevka,56.1201,101.1636,-27.23,91,100,3.63,RU,01-12-2022 23:18:10
275,kasongo-lunda,-6.4667,16.8167,20.44,98,100,0.15,CD,01-12-2022 23:18:10
276,rafsanjan,30.4067,55.9939,9.91,46,56,2.37,IR,01-12-2022 23:18:10
277,fairbanks,64.8378,-147.7164,-14.81,86,75,2.06,US,01-12-2022 23:15:05
278,rockland,41.1668,-74.0496,4.35,55,10,0.89,US,01-12-2022 23:18:10
279,haimen,23.1935,116.6142,10.94,72,100,5.02,CN,01-12-2022 23:18:11
280,fortuna,40.5982,-124.1573,9.25,90,20,2.57,US,01-12-2022 23:18:11
281,rietavas,55.7194,21.9311,-7.75,95,61,1.66,LT,01-12-2022 23:18:11
282,leningradskiy,69.3833,178.4167,-2.87,83,100,4.0,RU,01-12-2022 23:18:11
283,pevek,69.7008,170.3133,-8.51,95,98,6.02,RU,01-12-2022 23:18:12
284,iqaluit,63.7506,-68.5145,-14.15,84,100,8.05,CA,01-12-2022 23:18:12
285,nata,8.3333,-80.5167,27.93,83,58,4.27,PA,01-12-2022 23:18:12
286,port blair,11.6667,92.75,26.46,83,62,3.08,IN,01-12-2022 23:18:12
287,dwarka,22.2394,68.9678,23.08,55,0,2.92,IN,01-12-2022 23:18:12
288,kortkeros,61.8106,51.5806,-6.0,97,96,1.5,RU,01-12-2022 23:18:12
289,andahuaylas,-13.6556,-73.3872,16.51,47,0,2.09,PE,01-12-2022 23:13:18
290,esperance,-33.8667,121.9,17.78,81,100,5.93,AU,01-12-2022 23:18:13
291,la palma,33.8464,-118.0467,16.57,61,75,4.12,US,01-12-2022 23:18:13
292,yamada,39.4667,141.95,2.73,62,79,3.82,JP,01-12-2022 23:18:13
293,morro bay,35.3658,-120.8499,14.03,92,100,0.45,US,01-12-2022 23:18:13
294,sechura,-5.5569,-80.8222,22.47,70,9,6.74,PE,01-12-2022 23:18:13
295,santiago,-33.4569,-70.6483,24.92,36,0,7.72,CL,01-12-2022 23:18:09
296,wufeng,27.45,104.8333,-1.36,84,98,0.7,CN,01-12-2022 23:18:13
297,avola,36.9113,15.1395,8.16,70,8,1.22,IT,01-12-2022 23:18:13
298,kirkuk,35.4681,44.3922,14.75,76,1,0.59,IQ,01-12-2022 23:18:13
299,husavik,66.0449,-17.3389,2.16,73,3,4.72,IS,01-12-2022 23:18:13
300,araouane,18.9048,-3.5265,22.07,15,67,2.79,ML,01-12-2022 23:18:13
301,avarua,-21.2078,-159.775,28.03,78,40,5.14,CK,01-12-2022 23:18:14
302,ruhengeri,-1.4998,29.635,14.9,97,100,0.66,RW,01-12-2022 23:18:14
303,lambarene,-0.7001,10.2406,24.35,92,100,1.16,GA,01-12-2022 23:18:14
304,goundi,9.3627,17.366,24.85,24,91,1.98,TD,01-12-2022 23:18:14
305,champerico,14.3,-91.9167,30.3,76,60,2.01,GT,01-12-2022 23:18:15
306,santa cruz,-17.8,-63.1667,30.03,45,75,4.12,BO,01-12-2022 23:18:15
307,taman,45.2117,36.7161,6.5,70,100,10.73,RU,01-12-2022 23:13:19
308,quthing,-30.4,27.7003,19.47,54,88,2.45,LS,01-12-2022 23:18:15
309,roanoke rapids,36.4615,-77.6542,4.08,80,0,0.0,US,01-12-2022 23:18:15
310,izberbash,42.5696,47.8645,7.03,74,98,6.38,RU,01-12-2022 23:18:15
311,ponoka,52.6768,-113.5815,-22.29,100,62,0.42,CA,01-12-2022 23:18:15
312,grand-santi,4.25,-54.3833,22.79,98,48,1.13,GF,01-12-2022 23:18:15
313,samarai,-10.6167,150.6667,28.59,71,100,1.29,PG,01-12-2022 23:18:16
314,ballina,-28.8667,153.5667,21.68,73,92,9.43,AU,01-12-2022 23:18:16
315,hovd,48.0056,91.6419,-19.21,63,90,1.65,MN,01-12-2022 23:17:34
316,shelburne,44.0787,-80.2041,-0.75,82,60,4.55,CA,01-12-2022 23:18:17
317,novikovo,51.1537,37.8879,-3.03,68,100,5.06,RU,01-12-2022 23:18:17
318,padang,-0.9492,100.3543,23.93,92,100,1.82,ID,01-12-2022 23:18:18
319,mount hagen,-5.8581,144.2274,16.41,97,100,0.52,PG,01-12-2022 23:18:18
320,nantucket,41.2835,-70.0995,6.06,47,20,8.75,US,01-12-2022 23:18:18
321,kimbe,-5.5502,150.1429,28.8,73,100,0.86,PG,01-12-2022 23:18:18
322,jatiroto,-7.8833,111.1167,22.91,87,97,1.84,ID,01-12-2022 23:18:19
323,bathsheba,13.2167,-59.5167,27.34,74,40,8.23,BB,01-12-2022 23:18:19
324,tattayyangarpettai,11.1333,78.45,23.64,94,6,1.84,IN,01-12-2022 23:18:19
325,teya,60.3778,92.6267,-30.18,100,92,1.38,RU,01-12-2022 23:18:19
326,anapskaya,44.89,37.38,4.13,81,0,6.0,RU,01-12-2022 23:18:20
327,gizo,-8.103,156.8419,28.29,74,100,1.6,SB,01-12-2022 23:18:20
328,adrar,20.5022,-10.0711,20.6,20,0,3.38,MR,01-12-2022 23:18:20
329,port keats,-14.25,129.55,29.95,56,88,2.93,AU,01-12-2022 23:18:20
330,clyde river,70.4692,-68.5914,-30.87,76,100,2.06,CA,01-12-2022 23:18:20
331,panguna,-6.3164,155.4848,26.45,70,100,0.94,PG,01-12-2022 23:18:21
332,oranjemund,-28.55,16.4333,16.76,94,14,3.68,NA,01-12-2022 23:18:21
333,mont-de-marsan,44.0,-0.6667,5.44,100,100,1.03,FR,01-12-2022 23:17:05
334,sitka,57.0531,-135.33,-1.06,80,100,6.69,US,01-12-2022 23:18:21
335,kachiry,53.0675,76.1036,-20.42,89,12,3.4,KZ,01-12-2022 23:18:21
336,bandarbeyla,9.4942,50.8122,25.44,79,96,8.44,SO,01-12-2022 23:18:21
337,palmas bellas,9.2319,-80.0867,27.97,85,18,4.49,PA,01-12-2022 23:18:21
338,college,64.8569,-147.8028,-14.82,86,75,2.06,US,01-12-2022 23:18:21
339,eureka,40.8021,-124.1637,9.4,74,100,1.34,US,01-12-2022 23:18:21
340,yueyang,29.3333,113.0919,-1.0,83,98,0.55,CN,01-12-2022 23:18:22
341,nikolayevsk-na-amure,53.1406,140.73,-26.91,95,12,1.8,RU,01-12-2022 23:18:22
342,bodden town,19.2833,-81.25,28.0,75,40,8.23,KY,01-12-2022 23:18:22
343,caravelas,-17.7125,-39.2481,23.99,91,100,3.86,BR,01-12-2022 23:18:22
344,bell ville,-32.6259,-62.6887,21.48,32,89,4.8,AR,01-12-2022 23:18:22
345,maceio,-9.6658,-35.7353,25.69,83,75,3.6,BR,01-12-2022 23:14:59
346,kerman,30.2832,57.0788,10.07,43,9,1.65,IR,01-12-2022 23:15:06
347,san policarpo,12.1791,125.5072,27.24,83,100,7.24,PH,01-12-2022 23:18:23
348,karratha,-20.7377,116.8463,28.84,42,70,5.83,AU,01-12-2022 23:18:23
349,henties bay,-22.116,14.2845,15.78,93,1,3.06,NA,01-12-2022 23:18:23
350,mastic beach,40.7668,-72.8521,5.55,52,0,5.14,US,01-12-2022 23:18:23
351,christchurch,-43.5333,172.6333,12.11,71,75,6.17,NZ,01-12-2022 23:13:54
352,sao borja,-28.6606,-56.0044,24.4,70,85,3.89,BR,01-12-2022 23:18:23
353,necochea,-38.5473,-58.7368,14.96,76,99,4.38,AR,01-12-2022 23:18:23
354,hailar,49.2,119.7,-19.37,96,100,5.79,CN,01-12-2022 23:18:24
355,canto do buriti,-8.11,-42.9444,22.91,86,100,0.79,BR,01-12-2022 23:18:24
356,santa catalina,9.3337,122.8637,26.46,85,92,4.2,PH,01-12-2022 23:18:24
357,itaituba,-4.2761,-55.9836,24.06,95,99,1.02,BR,01-12-2022 23:18:24
358,naze,28.3667,129.4833,12.51,82,100,9.53,JP,01-12-2022 23:18:24
359,bognor regis,50.7821,-0.6798,7.1,96,24,4.1,GB,01-12-2022 23:18:24
360,homer,59.6425,-151.5483,-2.07,63,0,5.81,US,01-12-2022 23:18:24
361,mahajanga,-15.7167,46.3167,26.01,73,20,1.03,MG,01-12-2022 23:18:25
362,aketi,2.7388,23.7833,20.51,98,97,0.87,CD,01-12-2022 23:18:25
363,alice springs,-23.7,133.8833,27.75,17,0,5.14,AU,01-12-2022 23:18:25
364,kanepi,57.982,26.7627,-13.49,95,100,1.83,EE,01-12-2022 23:18:25
365,inhambane,-23.865,35.3833,22.47,88,6,3.35,MZ,01-12-2022 23:18:25
366,spassk-ryazanskiy,54.4072,40.3806,-8.36,92,100,1.76,RU,01-12-2022 23:18:25
367,nemuro,43.3236,145.575,-1.87,51,46,5.59,JP,01-12-2022 23:18:25
368,rundu,-17.9333,19.7667,21.47,31,0,2.4,NA,01-12-2022 23:18:25
369,saint-augustin,51.226,-58.6502,2.01,99,100,6.1,CA,01-12-2022 23:18:26
370,saint george,37.1041,-113.5841,13.57,37,20,0.45,US,01-12-2022 23:18:26
371,scottsbluff,41.8666,-103.6672,1.62,72,0,0.0,US,01-12-2022 23:18:26
372,soe,-9.8607,124.284,21.96,72,86,1.03,ID,01-12-2022 23:18:26
373,corralillo,22.9819,-80.5856,25.65,76,22,7.61,CU,01-12-2022 23:18:26
374,valparaiso,-33.0393,-71.6273,21.13,78,0,6.69,CL,01-12-2022 23:14:21
375,barbastro,42.0356,0.1269,5.3,71,0,2.08,ES,01-12-2022 23:18:27
376,lincoln,40.8,-96.667,9.51,40,0,7.2,US,01-12-2022 23:18:27
377,ternate,0.8,127.4,27.01,78,68,1.53,ID,01-12-2022 23:18:27
378,farnborough,51.2942,-0.7557,5.9,78,100,2.06,GB,01-12-2022 23:18:27
379,nioro,13.35,-15.75,26.23,29,68,3.58,GM,01-12-2022 23:18:27
380,bengkulu,-3.8004,102.2655,23.71,89,100,1.51,ID,01-12-2022 23:18:13
381,cayambe,0.05,-78.1333,12.59,97,93,2.79,EC,01-12-2022 23:18:28
382,biak,-0.9131,122.8766,25.48,80,99,1.63,ID,01-12-2022 23:18:28
383,neiafu,-18.65,-173.9833,30.38,79,40,5.14,TO,01-12-2022 23:18:28
384,guerrero negro,27.9769,-114.0611,17.38,63,2,5.96,MX,01-12-2022 23:18:28
385,langfang,39.5097,116.6947,-6.6,22,66,2.51,CN,01-12-2022 23:15:09
386,kedrovoye,57.1576,60.5698,-28.31,100,48,1.27,RU,01-12-2022 23:18:28
387,ponta do sol,32.6667,-17.1,19.45,73,28,3.3,PT,01-12-2022 23:18:29
388,hearst,49.6835,-83.6665,-9.86,78,100,1.66,CA,01-12-2022 23:18:29
389,karpogory,64.0019,44.4451,-6.88,94,100,1.52,RU,01-12-2022 23:18:29
390,jishu,44.3167,126.8,-14.14,65,0,5.42,CN,01-12-2022 23:18:29
391,malmesbury,-33.4608,18.7271,16.54,96,38,1.59,ZA,01-12-2022 23:15:03
392,half moon bay,37.4636,-122.4286,11.06,91,75,5.14,US,01-12-2022 23:18:30
393,port macquarie,-31.4333,152.9167,19.38,74,100,6.29,AU,01-12-2022 23:18:30
394,pushkinskiye gory,57.0209,28.9103,-9.97,93,90,1.85,RU,01-12-2022 23:16:22
395,puerto ayacucho,5.6639,-67.6236,25.62,66,8,5.06,VE,01-12-2022 23:18:30
396,manzanillo,20.3433,-77.1167,26.69,68,48,7.61,CU,01-12-2022 23:18:30
397,fevik,58.3794,8.6766,1.87,84,62,6.86,NO,01-12-2022 23:18:31
398,staryy nadym,65.6118,72.6842,-21.57,92,75,4.28,RU,01-12-2022 23:18:31
399,diebougou,10.9667,-3.25,28.71,24,82,2.13,BF,01-12-2022 23:18:31
400,harlingen,26.1906,-97.6961,16.22,89,100,3.6,US,01-12-2022 23:18:31
401,lumeje,-11.55,20.7833,18.54,92,49,1.34,AO,01-12-2022 23:18:31
402,viedma,-40.8135,-62.9967,18.87,43,0,7.19,AR,01-12-2022 23:14:42
403,avon park,27.5959,-81.5062,21.62,74,61,4.73,US,01-12-2022 23:18:32
404,lavrentiya,65.5833,-171.0,0.24,98,100,5.95,RU,01-12-2022 23:18:32
405,sansepolcro,43.5747,12.143,4.94,77,21,1.57,IT,01-12-2022 23:18:32
406,solnechnyy,50.7214,136.6319,-24.32,92,7,1.46,RU,01-12-2022 23:18:32
407,pundaguitan,6.3711,126.1689,27.03,80,100,5.67,PH,01-12-2022 23:18:33
408,nizhniy kuranakh,58.8353,125.4869,-23.88,95,100,4.14,RU,01-12-2022 23:18:33
409,farragut,35.8845,-84.1535,6.29,49,0,4.12,US,01-12-2022 23:18:33
410,terrace,54.5163,-128.6035,-11.05,48,100,10.29,CA,01-12-2022 23:18:33
411,barkhan,29.8977,69.5256,11.2,29,97,0.97,PK,01-12-2022 23:18:33
412,el porvenir,13.7617,-87.3458,24.63,69,94,1.52,HN,01-12-2022 23:18:34
413,karaton,-6.3424,106.1045,22.69,92,88,2.36,ID,01-12-2022 23:18:34
414,itarema,-2.9248,-39.9167,26.68,76,13,6.91,BR,01-12-2022 23:18:34
415,asau,46.4333,26.4,-2.49,95,100,0.75,RO,01-12-2022 23:18:34
416,kenai,60.5544,-151.2583,-9.36,85,0,1.54,US,01-12-2022 23:17:54
417,bestobe,52.4994,73.0975,-21.56,95,18,3.37,KZ,01-12-2022 23:18:34
418,cabo san lucas,22.8909,-109.9124,28.67,70,20,2.06,MX,01-12-2022 23:18:34
419,constitucion,-35.3333,-72.4167,15.31,66,0,7.06,CL,01-12-2022 23:17:16
420,kyren,51.6828,102.1408,-21.97,96,99,0.53,RU,01-12-2022 23:18:34
421,rutana,-3.8667,30.1,13.12,92,92,1.03,BI,01-12-2022 23:18:35
422,prince albert,53.2001,-105.7677,-20.03,71,75,2.57,CA,01-12-2022 23:18:35
423,mecca,21.4267,39.8261,24.49,71,39,1.89,SA,01-12-2022 23:15:54
424,poum,-20.2333,164.0167,27.77,84,97,7.72,NC,01-12-2022 23:18:36
425,orlik,52.5178,99.825,-29.77,93,67,1.12,RU,01-12-2022 23:18:36
426,tabuk,17.4189,121.4443,22.97,86,55,0.91,PH,01-12-2022 23:18:37
427,hervey bay,-25.2986,152.8535,20.9,70,76,7.71,AU,01-12-2022 23:18:37
428,muisne,0.6,-80.0333,24.03,80,97,4.84,EC,01-12-2022 23:18:37
429,ouesso,1.6136,16.0517,20.87,98,81,1.08,CG,01-12-2022 23:18:37
430,san juan,-31.5375,-68.5364,27.32,26,32,2.59,AR,01-12-2022 23:14:09
431,dutse,11.7594,9.3392,21.14,23,79,3.57,NG,01-12-2022 23:18:38
432,kavieng,-2.5744,150.7967,28.72,70,95,2.46,PG,01-12-2022 23:18:38
433,praia da vitoria,38.7333,-27.0667,13.2,71,40,13.12,PT,01-12-2022 23:18:38
434,sabang,5.8933,95.3214,27.35,71,100,3.92,ID,01-12-2022 23:18:38
435,nagato,34.3833,131.2,6.44,59,100,6.96,JP,01-12-2022 23:18:38
436,great yarmouth,52.6083,1.7305,5.57,66,88,4.77,GB,01-12-2022 23:18:38
437,vestmannaeyjar,63.4427,-20.2734,6.87,66,100,10.5,IS,01-12-2022 23:18:39
438,provideniya,64.3833,-173.3,2.06,93,100,5.0,RU,01-12-2022 23:18:39
439,turukhansk,65.8167,87.9833,-16.73,97,100,3.33,RU,01-12-2022 23:18:39
440,manaus,-3.1019,-60.025,28.28,74,0,3.09,BR,01-12-2022 23:14:14
441,dingle,10.9995,122.6711,25.06,92,81,4.34,PH,01-12-2022 23:18:39
442,ayni,39.3941,68.5377,1.8,91,100,2.33,TJ,01-12-2022 23:18:39
443,thinadhoo,0.5333,72.9333,26.97,71,51,2.72,MV,01-12-2022 23:18:39
444,darhan,49.4867,105.9228,-19.24,99,100,1.08,MN,01-12-2022 23:18:39
445,neyshabur,36.2133,58.7958,4.56,75,92,1.01,IR,01-12-2022 23:18:40
446,novochernorechenskiy,56.2669,91.0828,-24.53,100,100,1.21,RU,01-12-2022 23:18:40
447,winnemucca,40.973,-117.7357,3.03,87,75,3.09,US,01-12-2022 23:18:40
448,baijiantan,45.6333,85.1833,-9.02,45,89,0.54,CN,01-12-2022 23:18:41
449,harrisburg,40.2737,-76.8844,2.77,59,0,4.12,US,01-12-2022 23:18:41
450,yugo-kamskiy,57.7053,55.5894,-17.77,93,10,1.87,RU,01-12-2022 23:18:41
451,lucea,18.451,-78.1736,27.92,70,7,6.96,JM,01-12-2022 23:18:41
452,salihli,38.4826,28.1477,12.3,75,4,1.52,TR,01-12-2022 23:18:41
453,monrovia,6.3005,-10.7969,25.51,84,91,2.85,LR,01-12-2022 23:18:42
454,novyy svit,47.8059,38.0211,-1.28,44,100,8.69,UA,01-12-2022 23:18:42
455,aquiraz,-3.9014,-38.3911,28.05,78,58,5.15,BR,01-12-2022 23:18:42
456,komsomolskiy,40.4272,71.7189,4.95,68,100,2.49,UZ,01-12-2022 23:18:42
457,bulawayo,-20.15,28.5833,15.49,45,21,2.13,ZW,01-12-2022 23:18:43
458,watsa,3.0372,29.5355,16.78,97,41,1.12,CD,01-12-2022 23:18:43
459,linares,-35.85,-71.6,25.65,18,0,5.57,CL,01-12-2022 23:18:43
460,vega de alatorre,20.0333,-96.6333,22.96,84,79,4.03,MX,01-12-2022 23:18:43
461,mitsamiouli,-11.3847,43.2844,25.72,74,8,2.72,KM,01-12-2022 23:18:43
462,verkhoyansk,67.5447,133.385,-26.62,99,100,1.48,RU,01-12-2022 23:18:43
463,bani,18.2833,-70.3333,26.03,73,0,6.34,DO,01-12-2022 23:18:44
464,launceston,-41.45,147.1667,17.01,72,100,3.6,AU,01-12-2022 23:18:44
465,pala,9.3642,14.9046,23.04,26,96,2.41,TD,01-12-2022 23:18:44
466,abu dhabi,24.4667,54.3667,25.01,66,0,1.54,AE,01-12-2022 23:18:44
467,brandon,27.9378,-82.2859,22.71,70,0,2.24,US,01-12-2022 23:18:44
468,adre,13.4667,22.2,23.23,26,31,2.76,TD,01-12-2022 23:18:44
469,jumla,29.2747,82.1838,4.89,29,8,2.38,NP,01-12-2022 23:18:44
470,srednekolymsk,67.45,153.6833,-31.06,91,91,4.31,RU,01-12-2022 23:18:44
471,urubicha,-15.3833,-62.95,23.33,85,99,1.21,BO,01-12-2022 23:18:44
472,tchollire,8.4022,14.1698,23.65,29,100,0.9,CM,01-12-2022 23:18:45
473,yarada,17.65,83.2667,23.96,85,14,3.41,IN,01-12-2022 23:18:45
474,nhulunbuy,-12.2333,136.7667,30.34,74,100,2.57,AU,01-12-2022 23:18:45
475,northam,51.0333,-4.2167,1.81,87,15,3.13,GB,01-12-2022 23:18:45
476,victor harbor,-35.5667,138.6167,21.49,71,0,3.52,AU,01-12-2022 23:18:45
477,russell,32.3502,-85.1999,12.78,40,0,1.54,US,01-12-2022 23:18:46
478,bom jesus,-9.0744,-44.3586,22.68,87,100,1.72,BR,01-12-2022 23:18:46
479,salinas,36.6777,-121.6555,11.66,83,100,3.09,US,01-12-2022 23:18:46
480,bubaque,11.2833,-15.8333,27.57,63,61,7.01,GW,01-12-2022 23:18:46
481,takab,36.4009,47.1133,5.38,82,87,1.1,IR,01-12-2022 23:15:26
482,gazli,40.1333,63.45,-1.39,56,100,3.59,UZ,01-12-2022 23:18:46
483,anshun,26.25,105.9333,0.77,81,100,1.54,CN,01-12-2022 23:18:46
484,tiznit,29.5833,-9.5,12.97,88,98,0.99,MA,01-12-2022 23:18:47
485,haines junction,60.7522,-137.5108,-9.03,57,100,2.57,CA,01-12-2022 23:18:47
486,cervo,43.6702,-7.4101,11.65,80,5,7.06,ES,01-12-2022 23:18:47
487,lieksa,63.3167,30.0167,-3.12,96,100,0.48,FI,01-12-2022 23:18:47
488,huambo,-12.7761,15.7392,17.36,82,81,1.78,AO,01-12-2022 23:18:47
489,tayu,-6.5397,111.0518,24.05,87,65,3.97,ID,01-12-2022 23:18:47
490,zhezkazgan,47.8043,67.7144,-10.08,83,86,4.07,KZ,01-12-2022 23:18:47
491,saint augustine,29.8947,-81.3145,20.01,84,100,6.17,US,01-12-2022 23:18:47
492,lyuban,52.7985,28.0048,-11.33,95,96,2.43,BY,01-12-2022 23:18:48
493,tuatapere,-46.1333,167.6833,11.66,57,86,5.7,NZ,01-12-2022 23:18:48
494,yenagoa,4.9247,6.2642,25.33,85,99,1.59,NG,01-12-2022 23:18:48
495,cururupu,-1.8283,-44.8683,25.22,85,54,2.91,BR,01-12-2022 23:18:48
496,gunjur,13.2019,-16.7339,24.04,78,41,3.6,GM,01-12-2022 23:18:49
497,avenal,36.0041,-120.129,12.87,62,100,8.98,US,01-12-2022 23:18:49
498,dunda,-8.1167,34.25,18.57,89,100,1.23,TZ,01-12-2022 23:18:49
499,fujin,47.26,132.0322,-18.77,83,56,3.74,CN,01-12-2022 23:18:49
500,sompeta,18.9333,84.6,22.19,78,1,2.04,IN,01-12-2022 23:18:49
501,sarkand,45.41,79.9186,-9.11,80,77,2.88,KZ,01-12-2022 23:18:49
502,xichang,27.8964,102.2634,6.29,86,2,0.63,CN,01-12-2022 23:18:50
503,chateaubelair,13.2833,-61.25,25.29,78,40,6.69,VC,01-12-2022 23:18:50
504,zarubino,42.63,131.0922,-9.18,52,1,8.39,RU,01-12-2022 23:18:51
505,ludza,56.55,27.7167,-11.39,97,100,1.97,LV,01-12-2022 23:18:51
506,pedernales,18.0384,-71.744,26.18,72,9,1.05,DO,01-12-2022 23:18:51
507,muzaffarabad,34.37,73.4711,14.25,32,100,1.89,PK,01-12-2022 23:18:51
508,calabozo,8.9242,-67.4293,25.22,66,55,2.7,VE,01-12-2022 23:18:51
509,saiha,22.4833,92.9667,16.68,98,13,1.42,IN,01-12-2022 23:18:51
510,honningsvag,70.9821,25.9704,2.86,93,75,2.06,NO,01-12-2022 23:18:51
511,coahuayana,18.7333,-103.6833,30.12,59,22,2.61,MX,01-12-2022 23:18:52
512,bulungu,-4.55,18.6,21.05,95,99,0.69,CD,01-12-2022 23:18:52
513,xiangxiang,27.7333,112.5333,0.54,77,96,1.32,CN,01-12-2022 23:18:52
514,general roca,-39.0333,-67.5833,28.68,17,5,4.13,AR,01-12-2022 23:18:52
515,acari,-15.4311,-74.6158,22.57,65,0,2.47,PE,01-12-2022 23:18:52
516,tongliao,43.6125,122.2653,-14.15,48,3,4.29,CN,01-12-2022 23:14:20
517,romny,50.751,33.4747,-1.87,47,100,5.45,UA,01-12-2022 23:18:52
518,lerwick,60.1545,-1.1494,9.0,91,100,12.89,GB,01-12-2022 23:18:53
519,trzebnica,51.3108,17.0633,1.67,85,100,3.29,PL,01-12-2022 23:18:53
520,sakakah,29.9697,40.2064,14.76,58,5,3.02,SA,01-12-2022 23:18:39
521,luanda,-8.8368,13.2343,26.0,83,75,3.6,AO,01-12-2022 23:18:03
522,guanajuato,21.0186,-101.2591,23.32,45,9,6.09,MX,01-12-2022 23:18:53
523,sironko,1.2313,34.2477,18.57,62,97,1.9,UG,01-12-2022 23:18:53
524,mosquera,4.7059,-74.2302,14.05,82,40,6.17,CO,01-12-2022 23:18:53
525,kangasala,61.4638,24.076,-1.12,100,100,2.51,FI,01-12-2022 23:18:53
526,fort nelson,58.8053,-122.7002,-28.23,69,40,0.0,CA,01-12-2022 23:18:54
527,boffa,10.1667,-14.0333,26.39,77,77,0.61,GN,01-12-2022 23:18:54
528,pisco,-13.7,-76.2167,21.03,78,0,8.23,PE,01-12-2022 23:18:54
529,bacolod,10.6667,122.95,26.03,85,81,5.05,PH,01-12-2022 23:18:54
530,alofi,-19.0595,-169.9187,26.1,76,76,0.68,NU,01-12-2022 23:15:02
531,marsa matruh,31.3525,27.2453,17.59,64,0,1.77,EG,01-12-2022 23:18:54
532,grand gaube,-20.0064,57.6608,23.22,76,5,2.24,MU,01-12-2022 23:18:54
533,geraldton,-28.7667,114.6,20.23,73,100,2.57,AU,01-12-2022 23:18:52
534,bud,39.447,-86.1758,1.57,68,74,3.1,US,01-12-2022 23:18:55
535,labuhan,-6.8844,112.2051,25.02,80,99,5.69,ID,01-12-2022 23:18:55
536,baykit,61.67,96.37,-30.67,98,47,1.2,RU,01-12-2022 23:18:55
537,jardim,-21.4803,-56.1381,26.13,55,65,2.5,BR,01-12-2022 23:18:56
538,shakawe,-18.3667,21.85,21.52,27,0,2.44,BW,01-12-2022 23:18:56
539,shambu,9.5667,37.1,10.35,57,26,1.18,ET,01-12-2022 23:18:57
540,gimbi,9.1667,35.8333,13.6,61,60,0.76,ET,01-12-2022 23:18:57
541,kulevcha,46.0303,29.9361,4.14,77,100,4.97,UA,01-12-2022 23:18:57
542,praia,14.9215,-23.5087,22.8,67,95,6.28,CV,01-12-2022 23:18:57
543,ozinki,51.1786,49.6769,-7.53,92,9,2.85,RU,01-12-2022 23:18:57
544,siverek,37.755,39.3167,9.92,77,24,0.93,TR,01-12-2022 23:18:58
545,rawah,34.4816,41.9093,16.88,62,93,3.78,IQ,01-12-2022 23:18:58
546,tilichiki,60.4667,166.1,-11.55,95,94,0.54,RU,01-12-2022 23:18:58
547,salekhard,66.53,66.6019,-19.72,91,9,4.07,RU,01-12-2022 23:18:58
548,cockburn town,21.4612,-71.1419,26.71,67,0,9.92,TC,01-12-2022 23:18:58
549,aksu,41.1231,80.2644,-5.52,23,100,0.76,CN,01-12-2022 23:14:27
550,titisee-neustadt,47.9,8.1667,0.27,93,98,0.94,DE,01-12-2022 23:15:00
551,kutum,14.2,24.6667,19.43,29,81,2.71,SD,01-12-2022 23:18:59
552,paracatu,-17.2222,-46.8747,23.36,73,82,1.79,BR,01-12-2022 23:18:59
553,lavras,-21.2453,-44.9997,21.13,81,86,2.63,BR,01-12-2022 23:18:59
554,paamiut,61.994,-49.6678,-10.41,62,26,3.61,GL,01-12-2022 23:18:59
555,marawi,7.9986,124.2928,21.52,91,98,0.53,PH,01-12-2022 23:19:00
556,nachingwea,-10.3833,38.7667,21.37,84,59,0.86,TZ,01-12-2022 23:19:00
557,sioux lookout,50.1001,-91.917,-7.96,79,75,3.6,CA,01-12-2022 23:19:00
558,jalu,29.0331,21.5482,14.04,44,0,2.77,LY,01-12-2022 23:19:01
559,sinazongwe,-17.2614,27.4618,23.05,38,0,1.02,ZM,01-12-2022 23:19:01
560,barro,-6.7167,-38.8667,27.15,54,50,2.09,BR,01-12-2022 23:19:01
561,margate,51.3813,1.3862,8.16,83,87,0.45,GB,01-12-2022 23:19:01
562,fort saint james,54.4333,-124.25,-19.16,82,72,1.29,CA,01-12-2022 23:19:01
563,ahuimanu,21.4447,-157.8378,28.84,59,100,6.17,US,01-12-2022 23:19:01
564,lingyuan,41.24,119.4011,-10.31,35,45,2.26,CN,01-12-2022 23:19:01
565,aberdeen,57.1437,-2.0981,9.72,95,100,2.57,GB,01-12-2022 23:17:14
566,lixourion,38.2019,20.4314,14.77,83,71,2.61,GR,01-12-2022 23:19:02
567,duminichi,53.9345,35.1099,-5.7,81,100,3.21,RU,01-12-2022 23:19:02
568,dosso,13.049,3.1937,23.92,22,11,3.55,NE,01-12-2022 23:19:02
569,andenes,69.3143,16.1194,3.85,93,100,2.57,NO,01-12-2022 23:19:02
570,chambas,22.1928,-78.9136,24.83,71,98,6.26,CU,01-12-2022 23:19:02
571,ambulu,-8.345,113.6058,24.93,79,100,0.44,ID,01-12-2022 23:19:02
572,arcachon,44.5875,-1.0519,6.34,93,100,2.06,FR,01-12-2022 23:19:03
573,coruripe,-10.1256,-36.1756,25.41,83,98,6.99,BR,01-12-2022 23:19:04
574,pakokku,21.3333,95.1,22.07,84,1,0.63,MM,01-12-2022 23:19:04
575,gualaquiza,-3.4,-78.55,22.14,78,77,0.78,EC,01-12-2022 23:19:04
576,thohoyandou,-22.9456,30.485,17.49,63,1,0.75,ZA,01-12-2022 23:19:04
577,odessa,46.4775,30.7326,3.6,76,99,5.62,UA,01-12-2022 23:15:05
578,assiniboia,49.6334,-105.9845,-16.1,78,100,6.17,CA,01-12-2022 23:19:04
579,yerbogachen,61.2767,108.0108,-23.95,92,100,3.31,RU,01-12-2022 23:19:04
580,yumen,40.2833,97.2,-13.04,77,5,2.23,CN,01-12-2022 23:18:19
581,monroe,43.1501,-77.6831,0.28,69,75,7.2,US,01-12-2022 23:19:05
582,new plymouth,-39.0667,174.0833,16.84,47,22,7.62,NZ,01-12-2022 23:19:05
583,beidao,34.5686,105.8933,-3.55,64,77,1.69,CN,01-12-2022 23:19:05
584,novouzensk,50.4592,48.1431,-5.85,83,13,2.76,RU,01-12-2022 23:19:05
585,reconquista,-29.15,-59.65,28.27,39,94,4.3,AR,01-12-2022 23:19:05
586,belmonte,-15.8631,-38.8828,24.87,88,100,7.0,BR,01-12-2022 23:19:05
587,aswan,24.0934,32.907,18.59,34,0,5.3,EG,01-12-2022 23:17:32
588,springdale,36.1867,-94.1288,9.07,32,100,6.69,US,01-12-2022 23:19:05
589,puerto leguizamo,-0.1934,-74.7819,26.71,72,79,1.87,CO,01-12-2022 23:19:06
590,port hedland,-20.3167,118.5667,30.03,70,81,5.14,AU,01-12-2022 23:19:06
591,dunedin,-45.8742,170.5036,10.45,72,25,7.6,NZ,01-12-2022 23:19:06
592,richards bay,-28.783,32.0377,21.12,78,100,6.56,ZA,01-12-2022 23:19:07
593,tyumentsevo,53.3224,81.498,-19.75,93,23,3.61,RU,01-12-2022 23:19:07
594,mount gambier,-37.8333,140.7667,16.28,55,8,2.62,AU,01-12-2022 23:19:07
595,zeya,53.75,127.2667,-34.29,98,71,1.04,RU,01-12-2022 23:19:07
596,kindersley,51.4668,-109.1682,-20.99,71,100,3.6,CA,01-12-2022 23:19:07
597,barra da estiva,-13.6261,-41.3269,19.83,87,99,1.55,BR,01-12-2022 23:19:07
598,iquitos,-3.7481,-73.2472,30.02,66,40,1.54,PE,01-12-2022 23:19:07
599,urusha,54.05,122.9,-34.89,97,88,0.94,RU,01-12-2022 23:19:08
600,rio grande,-32.035,-52.0986,25.06,93,9,5.29,BR,01-12-2022 23:15:48
601,seredka,58.1584,28.1858,-13.14,87,100,2.49,RU,01-12-2022 23:19:08
602,kjollefjord,70.9457,27.3465,3.03,100,100,2.57,NO,01-12-2022 23:19:08
603,jinji,23.2281,110.8261,5.63,76,100,2.9,CN,01-12-2022 23:19:08
604,hualmay,-11.0964,-77.6139,20.82,80,10,3.68,PE,01-12-2022 23:19:08
605,neuquen,-38.9516,-68.0591,28.94,23,0,2.06,AR,01-12-2022 23:19:08
606,bowen,-20.0167,148.2333,23.5,65,100,3.76,AU,01-12-2022 23:19:08
607,iskateley,67.6803,53.1512,-7.62,96,100,4.01,RU,01-12-2022 23:19:08
608,tikhvin,59.6451,33.5294,-10.49,91,81,1.39,RU,01-12-2022 23:19:09
609,marsh harbour,26.5412,-77.0636,24.98,74,24,11.32,BS,01-12-2022 23:19:09
610,zhetysay,40.7333,68.3,0.58,58,100,2.08,KZ,01-12-2022 23:19:09
611,keti bandar,24.1447,67.4497,22.54,45,1,3.31,PK,01-12-2022 23:19:09
612,wenatchee,47.4235,-120.3103,1.21,84,100,0.89,US,01-12-2022 23:19:09
613,ancud,-41.8697,-73.8203,11.24,68,98,2.96,CL,01-12-2022 23:19:09
614,dandong,40.1292,124.3947,-7.99,30,0,1.62,CN,01-12-2022 23:16:24
615,key west,24.5557,-81.7826,30.0,71,40,7.2,US,01-12-2022 23:19:09
616,ouallam,14.3188,2.0866,24.16,16,30,3.46,NE,01-12-2022 23:19:10
617,sabla,12.7525,4.7077,23.56,22,39,3.9,NG,01-12-2022 23:19:10
618,encruzilhada do sul,-30.5439,-52.5219,21.88,77,63,1.95,BR,01-12-2022 23:19:10
619,olga,43.7444,135.2892,-15.2,72,2,2.45,RU,01-12-2022 23:19:10
620,oga,46.4631,10.347,-0.62,81,98,1.04,IT,01-12-2022 23:19:10
621,udachnyy,66.4167,112.4,-29.2,67,96,2.42,RU,01-12-2022 23:18:49
622,san luis,-33.295,-66.3356,23.32,33,25,5.89,AR,01-12-2022 23:19:10
623,gat,31.61,34.7642,16.89,67,0,2.23,IL,01-12-2022 23:18:36
624,tessalit,20.1986,1.0114,22.79,18,96,3.02,ML,01-12-2022 23:19:10
625,savonlinna,61.8699,28.88,-2.97,93,100,1.03,FI,01-12-2022 23:16:10
626,havre-saint-pierre,50.2334,-63.5986,1.0,74,100,9.77,CA,01-12-2022 23:19:11
627,camana,-16.6228,-72.7111,19.98,80,3,3.25,PE,01-12-2022 23:19:11
628,terre-de-bas,15.8501,-61.6442,25.88,73,1,7.18,GP,01-12-2022 23:19:11
629,umm lajj,25.0213,37.2685,23.82,55,9,4.42,SA,01-12-2022 23:19:12
630,acarau,-2.8856,-40.12,26.73,77,17,7.29,BR,01-12-2022 23:19:12
631,vestmanna,62.1564,-7.1664,9.51,100,100,7.72,FO,01-12-2022 23:19:12
632,rawson,-43.3002,-65.1023,21.75,38,55,14.26,AR,01-12-2022 23:19:12
633,velsk,61.0701,42.0983,-11.28,97,100,1.14,RU,01-12-2022 23:19:12
634,grindavik,63.8424,-22.4338,5.97,81,75,10.29,IS,01-12-2022 23:19:12
635,faya,18.3851,42.4509,12.06,64,22,0.41,SA,01-12-2022 23:19:13
636,namibe,-15.1961,12.1522,21.54,74,100,1.56,AO,01-12-2022 23:19:13
637,high rock,26.6208,-78.2833,25.01,74,37,11.08,BS,01-12-2022 23:19:13
638,cartagena,10.3997,-75.5144,27.79,74,20,4.12,CO,01-12-2022 23:18:21
639,crossville,35.949,-85.0269,4.41,51,0,1.79,US,01-12-2022 23:19:13
640,bam,29.106,58.357,13.59,34,0,3.13,IR,01-12-2022 23:19:13
641,kaeo,-35.1,173.7833,20.18,78,87,3.17,NZ,01-12-2022 23:19:13
642,ocos,14.5094,-92.1933,29.1,75,68,1.48,GT,01-12-2022 23:19:13
643,passagem franca,-6.1797,-43.7836,22.42,96,99,1.0,BR,01-12-2022 23:19:13
644,pueblo,38.2545,-104.6091,16.42,29,0,0.0,US,01-12-2022 23:19:13
645,smirnykh,49.75,142.8333,-15.13,87,80,1.95,RU,01-12-2022 23:19:14
646,khandyga,62.6667,135.6,-34.43,98,100,0.38,RU,01-12-2022 23:19:14
647,akyab,20.15,92.9,23.82,85,4,2.55,MM,01-12-2022 23:19:14
648,dryden,49.7833,-92.7503,-7.84,73,40,3.6,CA,01-12-2022 23:19:14
649,camopi,3.1655,-52.3158,22.67,99,49,1.26,GF,01-12-2022 23:19:14
650,jacqueville,5.2052,-4.4146,27.2,80,90,4.17,CI,01-12-2022 23:19:14
651,jucas,-6.5253,-39.5275,27.61,56,100,1.65,BR,01-12-2022 23:19:14
652,muskogee,35.5834,-95.3336,11.12,32,100,5.66,US,01-12-2022 23:19:14
653,florianopolis,-27.6146,-48.5012,22.57,88,40,1.03,BR,01-12-2022 23:18:18
654,dogondoutchi,13.6393,4.0287,25.0,19,12,3.77,NE,01-12-2022 23:19:14
655,zaraza,9.3503,-65.3245,23.91,77,14,3.72,VE,01-12-2022 23:19:15
656,ust-omchug,61.15,149.6333,-25.44,99,100,1.03,RU,01-12-2022 23:19:15
657,roald,62.5833,6.1333,4.86,75,0,4.12,NO,01-12-2022 23:19:15
658,mvuma,-19.2792,30.5283,14.42,78,19,1.97,ZW,01-12-2022 23:19:15
659,humaita,-7.5061,-63.0208,26.86,76,74,1.75,BR,01-12-2022 23:19:15
660,sibolga,1.7427,98.7792,23.4,91,100,0.97,ID,01-12-2022 23:19:16
661,sambava,-14.2667,50.1667,23.49,88,51,2.11,MG,01-12-2022 23:19:16
662,norrtalje,59.758,18.705,3.34,96,100,2.54,SE,01-12-2022 23:16:22
663,buchanan,5.8808,-10.0467,25.23,87,100,2.53,LR,01-12-2022 23:19:16
664,anchorage,61.2181,-149.9003,-7.82,87,0,2.06,US,01-12-2022 23:15:40
665,nargana,9.4428,-78.5906,26.68,74,13,5.39,PA,01-12-2022 23:19:16
666,ledyard,41.4398,-72.0142,4.15,48,5,2.24,US,01-12-2022 23:19:16
667,vikulovo,56.8167,70.6107,-24.33,94,23,2.19,RU,01-12-2022 23:19:16
668,chornobay,49.6708,32.3239,-1.27,53,100,5.17,UA,01-12-2022 23:19:16
669,urucara,-2.5364,-57.76,25.04,88,97,0.77,BR,01-12-2022 23:19:17
670,santa maria,-29.6842,-53.8069,25.15,58,3,2.37,BR,01-12-2022 23:19:17
671,coxim,-18.5067,-54.76,23.29,89,82,2.85,BR,01-12-2022 23:19:17
672,surt,31.2089,16.5887,16.33,44,16,3.76,LY,01-12-2022 23:19:17
673,kisangani,0.5167,25.2,19.73,99,74,0.72,CD,01-12-2022 23:19:17
674,ayan,56.45,138.1667,-18.41,68,69,6.81,RU,01-12-2022 23:19:17
